[
  {
    "id": 1,
    "name": "Basic-Fit Rotterdam Kralingseweg",
    "latitude": 51.92855202269744,
    "longitude": 4.538832387039253,
    "rating": 4.5,
    "description": "A great place to visit."
  },
  {
    "id": 2,
    "name": "Basic-Fit Rotterdam Metaalhof",
    "latitude": 51.94929733570159,
    "longitude": 4.548874153151198,
    "rating": 4.0,
    "description": "Beautiful scenery."
  },
  {
    "id": 3,
    "name": "Basic-Fit Rotterdam 1e Jerichostraat",
    "latitude": 51.92897818208669,
    "longitude": 4.512996925435802,
    "rating": 4.0,
    "description": "Beautiful scenery."
  },
  {
    "id": 4,
    "name": "Basic-Fit Rotterdam Lijnbaan",
    "latitude": 51.92379109062584,
    "longitude": 4.4817545550010705,
    "rating": 4.0,
    "description": "Beautiful scenery."
  },
  {
    "id": 5,
    "name": "Basic-Fit Rotterdam Delftseplein",
    "latitude": 51.92559076166343,
    "longitude": 4.480381264004818,
    "rating": 4.0,
    "description": "Beautiful scenery."
  },
  {
    "id": 6,
    "name": "Basic-Fit Rotterdam Westzeedijk",
    "latitude": 51.90773045597657,
    "longitude": 4.4708435006449525,
    "rating": 4.0,
    "description": "Beautiful scenery."
  },
  {
    "id": 7,
    "name": "Basic-Fit Rotterdam Rijksboom",
    "latitude": 51.91018744431228,
    "longitude": 4.504241910641595,
    "rating": 4.0,
    "description": "Beautiful scenery."
  },
  {
    "id": 8,
    "name": "Basic-Fit Rotterdam Plompertstraat",
    "latitude": 51.88954418451376,
    "longitude": 4.470426748612288,
    "rating": 4.0,
    "description": "Beautiful scenery."
  },
  {
    "id": 9,
    "name": "Basic-Fit Rotterdam Jan Ligthartstraat",
    "latitude": 51.886879847182016,
    "longitude": 4.507359620809934,
    "rating": 4.0,
    "description": "Beautiful scenery."
  },
  {
    "id": 10,
    "name": "Basic-Fit Rotterdam IJselmonde Dwarsdijk",
    "latitude": 51.89230261810624,
    "longitude": 4.545477474334302,
    "rating": 4.0,
    "description": "Beautiful scenery."
  },
  {
    "id": 11,
    "name": "Basic-Fit Rotterdam Dorpslaan",
    "latitude": 51.870152885273065,
    "longitude": 4.482776448004696,
    "rating": 4.0,
    "description": "Beautiful scenery."
  }
]